[
  {
    "id": "ga-atl-legal-aid",
    "name": "Atlanta Legal Aid Society",
    "phone": "(404) 524-5811",
    "website": "https://atlantalegalaid.org/",
    "address": "54 Ellis St NE, Atlanta, GA 30303",
    "city": "Atlanta",
    "state": "GA",
    "zip": "30303",
    "languages": ["en", "es"],
    "categories": ["defensa", "trabajo", "vivienda"],
    "pro_bono": true,
    "lat": 33.7586,
    "lon": -84.3867
  },
  {
    "id": "nyc-legal-aid",
    "name": "The Legal Aid Society",
    "phone": "(212) 577-3300",
    "website": "https://legalaidnyc.org/",
    "address": "199 Water St, New York, NY 10038",
    "city": "New York",
    "state": "NY",
    "zip": "10038",
    "languages": ["en", "es", "zh"],
    "categories": ["defensa", "trabajo", "vivienda", "salud"],
    "pro_bono": false,
    "lat": 40.7076,
    "lon": -74.0047
  },
  {
    "id": "la-public-counsel",
    "name": "Public Counsel",
    "phone": "(213) 385-2977",
    "website": "https://publiccounsel.org/",
    "address": "610 S Ardmore Ave, Los Angeles, CA 90005",
    "city": "Los Angeles",
    "state": "CA",
    "zip": "90005",
    "languages": ["en", "es", "ko"],
    "categories": ["defensa", "vivienda", "trabajo"],
    "pro_bono": true,
    "lat": 34.0622,
    "lon": -118.3029
  },
  {
    "id": "tx-raices",
    "name": "RAICES",
    "phone": "(210) 226-7722",
    "website": "https://www.raicestexas.org/",
    "address": "802 Kentucky Ave, San Antonio, TX 78201",
    "city": "San Antonio",
    "state": "TX",
    "zip": "78201",
    "languages": ["en", "es"],
    "categories": ["asilo", "defensa"],
    "pro_bono": true,
    "lat": 29.4464,
    "lon": -98.5223
  },
  {
    "id": "wa-nwirp",
    "name": "Northwest Immigrant Rights Project (NWIRP)",
    "phone": "(206) 587-400
